{
  "type": "FeatureCollection",
  "features": [
    {
      "type": "Feature",
      "geometry": {
        "type": "Point",
        "coordinates": [
          46.12047014,
          35.22983414
        ]
      },
      "properties": {
        "Name": "Byara Sharifa Motel",
        "Dataset": "HERA",
        "name": "Byara Sharifa Motel",
        "dataset": "HERA",
        "latitude": 35.22983414,
        "longitude": 46.12047014
      }
    },
    {
      "type": "Feature",
      "geometry": {
        "type": "Point",
        "coordinates": [
          45.95911867,
          35.2051574
        ]
      },
      "properties": {
        "Name": "Girls Dormitory",
        "Dataset": "HERA",
        "name": "Girls Dormitory",
        "dataset": "HERA",
        "latitude": 35.2051574,
        "longitude": 45.95911867
      }
    },
    {
      "type": "Feature",
      "geometry": {
        "type": "Point",
        "coordinates": [
          45.96621878,
          35.20545063
        ]
      },
      "properties": {
        "Name": "Boys Dormitory",
        "Dataset": "HERA",
        "name": "Boys Dormitory",
        "dataset": "HERA",
        "latitude": 35.20545063,
        "longitude": 45.96621878
      }
    },
    {
      "type": "Feature",
      "geometry": {
        "type": "Point",
        "coordinates": [
          45.9759812,
          35.1922979
        ]
      },
      "properties": {
        "Name": "Halabja Palace Hotel",
        "Dataset": "HERA",
        "name": "Halabja Palace Hotel",
        "dataset": "HERA",
        "latitude": 35.1922979,
        "longitude": 45.9759812
      }
    },
    {
      "type": "Feature",
      "geometry": {
        "type": "Point",
        "coordinates": [
          46.0229894,
          35.1740204
        ]
      },
      "properties": {
        "Name": "Halabja University Boys Dormitory",
        "Dataset": "HERA",
        "name": "Halabja University Boys Dormitory",
        "dataset": "HERA",
        "latitude": 35.1740204,
        "longitude": 46.0229894
      }
    },
    {
      "type": "Feature",
      "geometry": {
        "type": "Point",
        "coordinates": [
          45.9817714,
          35.15865452
        ]
      },
      "properties": {
        "Name": "Haji Guesthouse",
        "Dataset": "HERA",
        "name": "Haji Guesthouse",
        "dataset": "HERA",
        "latitude": 35.15865452,
        "longitude": 45.9817714
      }
    },
    {
      "type": "Feature",
      "geometry": {
        "type": "Point",
        "coordinates": [
          45.97486208,
          35.1479686
        ]
      },
      "properties": {
        "Name": "Diwakhan",
        "Dataset": "HERA",
        "name": "Diwakhan",
        "dataset": "HERA",
        "latitude": 35.1479686,
        "longitude": 45.97486208
      }
    },
    {
      "type": "Feature",
      "geometry": {
        "type": "Point",
        "coordinates": [
          46.06775053,
          35.31119241
        ]
      },
      "properties": {
        "Name": "Chno Accomodation & Picnic Site",
        "Dataset": "HERA",
        "name": "Chno Accomodation & Picnic Site",
        "dataset": "HERA",
        "latitude": 35.31119241,
        "longitude": 46.06775053
      }
    },
    {
      "type": "Feature",
      "geometry": {
        "type": "Point",
        "coordinates": [
          46.07668287,
          35.31137925
        ]
      },
      "properties": {
        "Name": "Hawari Rega Accomodation & Picnic Site",
        "Dataset": "HERA",
        "name": "Hawari Rega Accomodation & Picnic Site",
        "dataset": "HERA",
        "latitude": 35.31137925,
        "longitude": 46.07668287
      }
    },
    {
      "type": "Feature",
      "geometry": {
        "type": "Point",
        "coordinates": [
          46.08565939,
          35.31469957
        ]
      },
      "properties": {
        "Name": "Waran Accomodation & Picnic Site",
        "Dataset": "HERA",
        "name": "Waran Accomodation & Picnic Site",
        "dataset": "HERA",
        "latitude": 35.31469957,
        "longitude": 46.08565939
      }
    },
    {
      "type": "Feature",
      "geometry": {
        "type": "Point",
        "coordinates": [
          46.08795108,
          35.31593008
        ]
      },
      "properties": {
        "Name": "No name",
        "Dataset": "HERA",
        "name": "No name",
        "dataset": "HERA",
        "latitude": 35.31593008,
        "longitude": 46.08795108
      }
    },
    {
      "type": "Feature",
      "geometry": {
        "type": "Point",
        "coordinates": [
          46.11827194,
          35.22383812
        ]
      },
      "properties": {
        "Name": "No name",
        "Dataset": "HERA",
        "name": "No name",
        "dataset": "HERA",
        "latitude": 35.22383812,
        "longitude": 46.11827194
      }
    },
    {
      "type": "Feature",
      "geometry": {
        "type": "Point",
        "coordinates": [
          46.1181391,
          35.2237871
        ]
      },
      "properties": {
        "Name": "No name",
        "Dataset": "HERA",
        "name": "No name",
        "dataset": "HERA",
        "latitude": 35.2237871,
        "longitude": 46.1181391
      }
    },
    {
      "type": "Feature",
      "geometry": {
        "type": "Point",
        "coordinates": [
          46.11062497,
          35.22794939
        ]
      },
      "properties": {
        "Name": "Byara Picnic House",
        "Dataset": "HERA",
        "name": "Byara Picnic House",
        "dataset": "HERA",
        "latitude": 35.22794939,
        "longitude": 46.11062497
      }
    },
    {
      "type": "Feature",
      "geometry": {
        "type": "Point",
        "coordinates": [
          46.12098123,
          35.23016083
        ]
      },
      "properties": {
        "Name": "Khanaqa Guesthouse",
        "Dataset": "HERA",
        "name": "Khanaqa Guesthouse",
        "dataset": "HERA",
        "latitude": 35.23016083,
        "longitude": 46.12098123
      }
    },
    {
      "type": "Feature",
      "geometry": {
        "type": "Point",
        "coordinates": [
          46.11841849,
          35.22612821
        ]
      },
      "properties": {
        "Name": "Lalo Guesthouse",
        "Dataset": "HERA",
        "name": "Lalo Guesthouse",
        "dataset": "HERA",
        "latitude": 35.22612821,
        "longitude": 46.11841849
      }
    },
    {
      "type": "Feature",
      "geometry": {
        "type": "Point",
        "coordinates": [
          46.1183689,
          35.2272317
        ]
      },
      "properties": {
        "Name": "No name",
        "Dataset": "HERA",
        "name": "No name",
        "dataset": "HERA",
        "latitude": 35.2272317,
        "longitude": 46.1183689
      }
    },
    {
      "type": "Feature",
      "geometry": {
        "type": "Point",
        "coordinates": [
          46.1187851,
          35.22802505
        ]
      },
      "properties": {
        "Name": "No name",
        "Dataset": "HERA",
        "name": "No name",
        "dataset": "HERA",
        "latitude": 35.22802505,
        "longitude": 46.1187851
      }
    },
    {
      "type": "Feature",
      "geometry": {
        "type": "Point",
        "coordinates": [
          46.12118483,
          35.23002735
        ]
      },
      "properties": {
        "Name": "Saya Guesthouse",
        "Dataset": "HERA",
        "name": "Saya Guesthouse",
        "dataset": "HERA",
        "latitude": 35.23002735,
        "longitude": 46.12118483
      }
    },
    {
      "type": "Feature",
      "geometry": {
        "type": "Point",
        "coordinates": [
          46.11757105,
          35.22886364
        ]
      },
      "properties": {
        "Name": "Tafan Picnic Area",
        "Dataset": "HERA",
        "name": "Tafan Picnic Area",
        "dataset": "HERA",
        "latitude": 35.22886364,
        "longitude": 46.11757105
      }
    },
    {
      "type": "Feature",
      "geometry": {
        "type": "Point",
        "coordinates": [
          46.18894598,
          35.21711963
        ]
      },
      "properties": {
        "Name": "Awesar Picnic Community",
        "Dataset": "HERA",
        "name": "Awesar Picnic Community",
        "dataset": "HERA",
        "latitude": 35.21711963,
        "longitude": 46.18894598
      }
    },
    {
      "type": "Feature",
      "geometry": {
        "type": "Point",
        "coordinates": [
          46.18554759,
          35.19998591
        ]
      },
      "properties": {
        "Name": "Jawahir Hotel",
        "Dataset": "HERA",
        "name": "Jawahir Hotel",
        "dataset": "HERA",
        "latitude": 35.19998591,
        "longitude": 46.18554759
      }
    },
    {
      "type": "Feature",
      "geometry": {
        "type": "Point",
        "coordinates": [
          46.18852234,
          35.21651459
        ]
      },
      "properties": {
        "Name": "Awesar Picnic House",
        "Dataset": "HERA",
        "name": "Awesar Picnic House",
        "dataset": "HERA",
        "latitude": 35.21651459,
        "longitude": 46.18852234
      }
    },
    {
      "type": "Feature",
      "geometry": {
        "type": "Point",
        "coordinates": [
          46.13521273,
          35.20950495
        ]
      },
      "properties": {
        "Name": "Hawraman Palace",
        "Dataset": "HERA",
        "name": "Hawraman Palace",
        "dataset": "HERA",
        "latitude": 35.20950495,
        "longitude": 46.13521273
      }
    },
    {
      "type": "Feature",
      "geometry": {
        "type": "Point",
        "coordinates": [
          46.1845612,
          35.1965355
        ]
      },
      "properties": {
        "Name": "Mohammed Gueshouse and Picnic Area",
        "Dataset": "HERA",
        "name": "Mohammed Gueshouse and Picnic Area",
        "dataset": "HERA",
        "latitude": 35.1965355,
        "longitude": 46.1845612
      }
    },
    {
      "type": "Feature",
      "geometry": {
        "type": "Point",
        "coordinates": [
          46.18417358,
          35.2121315
        ]
      },
      "properties": {
        "Name": "Nm Nm Picnic Area",
        "Dataset": "HERA",
        "name": "Nm Nm Picnic Area",
        "dataset": "HERA",
        "latitude": 35.2121315,
        "longitude": 46.18417358
      }
    },
    {
      "type": "Feature",
      "geometry": {
        "type": "Point",
        "coordinates": [
          46.18399537,
          35.21117908
        ]
      },
      "properties": {
        "Name": "Saya Picnic House",
        "Dataset": "HERA",
        "name": "Saya Picnic House",
        "dataset": "HERA",
        "latitude": 35.21117908,
        "longitude": 46.18399537
      }
    },
    {
      "type": "Feature",
      "geometry": {
        "type": "Point",
        "coordinates": [
          46.15221136,
          35.19949967
        ]
      },
      "properties": {
        "Name": "No name",
        "Dataset": "HERA",
        "name": "No name",
        "dataset": "HERA",
        "latitude": 35.19949967,
        "longitude": 46.15221136
      }
    },
    {
      "type": "Feature",
      "geometry": {
        "type": "Point",
        "coordinates": [
          46.1500892,
          35.2034356
        ]
      },
      "properties": {
        "Name": "No name",
        "Dataset": "HERA",
        "name": "No name",
        "dataset": "HERA",
        "latitude": 35.2034356,
        "longitude": 46.1500892
      }
    },
    {
      "type": "Feature",
      "geometry": {
        "type": "Point",
        "coordinates": [
          46.18540398,
          35.20031222
        ]
      },
      "properties": {
        "Name": "Aro Motel",
        "Dataset": "HERA",
        "name": "Aro Motel",
        "dataset": "HERA",
        "latitude": 35.20031222,
        "longitude": 46.18540398
      }
    },
    {
      "type": "Feature",
      "geometry": {
        "type": "Point",
        "coordinates": [
          46.18327116,
          35.20313105
        ]
      },
      "properties": {
        "Name": "No name",
        "Dataset": "HERA",
        "name": "No name",
        "dataset": "HERA",
        "latitude": 35.20313105,
        "longitude": 46.18327116
      }
    },
    {
      "type": "Feature",
      "geometry": {
        "type": "Point",
        "coordinates": [
          46.180833,
          35.1872781
        ]
      },
      "properties": {
        "Name": "Tazhna Family Guesthouse",
        "Dataset": "HERA",
        "name": "Tazhna Family Guesthouse",
        "dataset": "HERA",
        "latitude": 35.1872781,
        "longitude": 46.180833
      }
    },
    {
      "type": "Feature",
      "geometry": {
        "type": "Point",
        "coordinates": [
          46.17757231,
          35.18657149
        ]
      },
      "properties": {
        "Name": "Sarkash Picnic Area",
        "Dataset": "HERA",
        "name": "Sarkash Picnic Area",
        "dataset": "HERA",
        "latitude": 35.18657149,
        "longitude": 46.17757231
      }
    },
    {
      "type": "Feature",
      "geometry": {
        "type": "Point",
        "coordinates": [
          46.1217664,
          35.2304822
        ]
      },
      "properties": {
        "Name": "Zhiwan Family Picnic Area",
        "Dataset": "HERA",
        "name": "Zhiwan Family Picnic Area",
        "dataset": "HERA",
        "latitude": 35.2304822,
        "longitude": 46.1217664
      }
    },
    {
      "type": "Feature",
      "geometry": {
        "type": "Point",
        "coordinates": [
          46.0680578,
          35.3118053
        ]
      },
      "properties": {
        "Name": "Mohammed Accomodation & Picnic Site",
        "Dataset": "HERA",
        "name": "Mohammed Accomodation & Picnic Site",
        "dataset": "HERA",
        "latitude": 35.3118053,
        "longitude": 46.0680578
      }
    },
    {
      "type": "Feature",
      "geometry": {
        "type": "Point",
        "coordinates": [
          46.0681152,
          35.3115346
        ]
      },
      "properties": {
        "Name": "Ahmed Awa Picnic Park",
        "Dataset": "HERA",
        "name": "Ahmed Awa Picnic Park",
        "dataset": "HERA",
        "latitude": 35.3115346,
        "longitude": 46.0681152
      }
    },
    {
      "type": "Feature",
      "geometry": {
        "type": "Point",
        "coordinates": [
          46.0768261,
          35.3113537
        ]
      },
      "properties": {
        "Name": "Shatu Picnic Park",
        "Dataset": "HERA",
        "name": "Shatu Picnic Park",
        "dataset": "HERA",
        "latitude": 35.3113537,
        "longitude": 46.0768261
      }
    },
    {
      "type": "Feature",
      "geometry": {
        "type": "Point",
        "coordinates": [
          46.0767477,
          35.3117612
        ]
      },
      "properties": {
        "Name": "Brwa Picnic Park",
        "Dataset": "HERA",
        "name": "Brwa Picnic Park",
        "dataset": "HERA",
        "latitude": 35.3117612,
        "longitude": 46.0767477
      }
    },
    {
      "type": "Feature",
      "geometry": {
        "type": "Point",
        "coordinates": [
          46.0870772,
          35.315755
        ]
      },
      "properties": {
        "Name": "Picnic Park",
        "Dataset": "HERA",
        "name": "Picnic Park",
        "dataset": "HERA",
        "latitude": 35.315755,
        "longitude": 46.0870772
      }
    },
    {
      "type": "Feature",
      "geometry": {
        "type": "Point",
        "coordinates": [
          46.0871768,
          35.3157059
        ]
      },
      "properties": {
        "Name": "Haima Picnic Park",
        "Dataset": "HERA",
        "name": "Haima Picnic Park",
        "dataset": "HERA",
        "latitude": 35.3157059,
        "longitude": 46.0871768
      }
    },
    {
      "type": "Feature",
      "geometry": {
        "type": "Point",
        "coordinates": [
          46.0881503,
          35.3154557
        ]
      },
      "properties": {
        "Name": "Marina Picnic Park",
        "Dataset": "HERA",
        "name": "Marina Picnic Park",
        "dataset": "HERA",
        "latitude": 35.3154557,
        "longitude": 46.0881503
      }
    },
    {
      "type": "Feature",
      "geometry": {
        "type": "Point",
        "coordinates": [
          46.0885516,
          35.3158823
        ]
      },
      "properties": {
        "Name": "Rent House",
        "Dataset": "HERA",
        "name": "Rent House",
        "dataset": "HERA",
        "latitude": 35.3158823,
        "longitude": 46.0885516
      }
    },
    {
      "type": "Feature",
      "geometry": {
        "type": "Point",
        "coordinates": [
          46.0883602,
          35.315888
        ]
      },
      "properties": {
        "Name": "Rent House",
        "Dataset": "HERA",
        "name": "Rent House",
        "dataset": "HERA",
        "latitude": 35.315888,
        "longitude": 46.0883602
      }
    },
    {
      "type": "Feature",
      "geometry": {
        "type": "Point",
        "coordinates": [
          46.0894065,
          35.3160496
        ]
      },
      "properties": {
        "Name": "Goshai Dolen",
        "Dataset": "HERA",
        "name": "Goshai Dolen",
        "dataset": "HERA",
        "latitude": 35.3160496,
        "longitude": 46.0894065
      }
    },
    {
      "type": "Feature",
      "geometry": {
        "type": "Point",
        "coordinates": [
          46.0856481,
          35.3145374
        ]
      },
      "properties": {
        "Name": "View Motel",
        "Dataset": "HERA",
        "name": "View Motel",
        "dataset": "HERA",
        "latitude": 35.3145374,
        "longitude": 46.0856481
      }
    },
    {
      "type": "Feature",
      "geometry": {
        "type": "Point",
        "coordinates": [
          45.97443257,
          35.19255798
        ]
      },
      "properties": {
        "Name": "Boys Dormitory",
        "Dataset": "HERA",
        "name": "Boys Dormitory",
        "dataset": "HERA",
        "latitude": 35.19255798,
        "longitude": 45.97443257
      }
    },
    {
      "type": "Feature",
      "geometry": {
        "type": "Point",
        "coordinates": [
          45.96916773,
          35.19381066
        ]
      },
      "properties": {
        "Name": "Girls College Dormitory",
        "Dataset": "HERA",
        "name": "Girls College Dormitory",
        "dataset": "HERA",
        "latitude": 35.19381066,
        "longitude": 45.96916773
      }
    },
    {
      "type": "Feature",
      "geometry": {
        "type": "Point",
        "coordinates": [
          45.96157045,
          35.20505717
        ]
      },
      "properties": {
        "Name": "Girls Institute Dormitory",
        "Dataset": "HERA",
        "name": "Girls Institute Dormitory",
        "dataset": "HERA",
        "latitude": 35.20505717,
        "longitude": 45.96157045
      }
    },
    {
      "type": "Feature",
      "geometry": {
        "type": "Point",
        "coordinates": [
          45.9978484,
          35.1807858
        ]
      },
      "properties": {
        "Name": "Halabja University Dormitory",
        "Dataset": "HERA",
        "name": "Halabja University Dormitory",
        "dataset": "HERA",
        "latitude": 35.1807858,
        "longitude": 45.9978484
      }
    },
    {
      "type": "Feature",
      "geometry": {
        "type": "Point",
        "coordinates": [
          46.00336885,
          35.192186
        ]
      },
      "properties": {
        "Name": "Boy's Dormitory",
        "Dataset": "HERA",
        "name": "Boy's Dormitory",
        "dataset": "HERA",
        "latitude": 35.192186,
        "longitude": 46.00336885
      }
    },
    {
      "type": "Feature",
      "geometry": {
        "type": "Point",
        "coordinates": [
          46.01947833,
          35.17426791
        ]
      },
      "properties": {
        "Name": "Halabja University Dormitory",
        "Dataset": "HERA",
        "name": "Halabja University Dormitory",
        "dataset": "HERA",
        "latitude": 35.17426791,
        "longitude": 46.01947833
      }
    },
    {
      "type": "Feature",
      "geometry": {
        "type": "Point",
        "coordinates": [
          46.02280165,
          35.17353286
        ]
      },
      "properties": {
        "Name": "Boys Dormitory",
        "Dataset": "HERA",
        "name": "Boys Dormitory",
        "dataset": "HERA",
        "latitude": 35.17353286,
        "longitude": 46.02280165
      }
    },
    {
      "type": "Feature",
      "geometry": {
        "type": "Point",
        "coordinates": [
          45.9650009,
          35.239637
        ]
      },
      "properties": {
        "Name": "Sirwan Poultry Farm",
        "Dataset": "HERA",
        "name": "Sirwan Poultry Farm",
        "dataset": "HERA",
        "latitude": 35.239637,
        "longitude": 45.9650009
      }
    },
    {
      "type": "Feature",
      "geometry": {
        "type": "Point",
        "coordinates": [
          46.03633842,
          35.30019012
        ]
      },
      "properties": {
        "Name": "Khurmal Agriculture Office",
        "Dataset": "HERA",
        "name": "Khurmal Agriculture Office",
        "dataset": "HERA",
        "latitude": 35.30019012,
        "longitude": 46.03633842
      }
    },
    {
      "type": "Feature",
      "geometry": {
        "type": "Point",
        "coordinates": [
          46.03546612,
          35.29980862
        ]
      },
      "properties": {
        "Name": "Salam Agriculture Office",
        "Dataset": "HERA",
        "name": "Salam Agriculture Office",
        "dataset": "HERA",
        "latitude": 35.29980862,
        "longitude": 46.03546612
      }
    },
    {
      "type": "Feature",
      "geometry": {
        "type": "Point",
        "coordinates": [
          45.9354225,
          35.2581385
        ]
      },
      "properties": {
        "Name": "Sirwan Animal Breeding",
        "Dataset": "HERA",
        "name": "Sirwan Animal Breeding",
        "dataset": "HERA",
        "latitude": 35.2581385,
        "longitude": 45.9354225
      }
    },
    {
      "type": "Feature",
      "geometry": {
        "type": "Point",
        "coordinates": [
          45.98466673,
          35.17753042
        ]
      },
      "properties": {
        "Name": "Jihani Halhenar",
        "Dataset": "HERA",
        "name": "Jihani Halhenar",
        "dataset": "HERA",
        "latitude": 35.17753042,
        "longitude": 45.98466673
      }
    },
    {
      "type": "Feature",
      "geometry": {
        "type": "Point",
        "coordinates": [
          46.1813182,
          35.2091918
        ]
      },
      "properties": {
        "Name": "Cham Picnic Area",
        "Dataset": "HERA",
        "name": "Cham Picnic Area",
        "dataset": "HERA",
        "latitude": 35.2091918,
        "longitude": 46.1813182
      }
    },
    {
      "type": "Feature",
      "geometry": {
        "type": "Point",
        "coordinates": [
          45.9696133,
          35.18890439
        ]
      },
      "properties": {
        "Name": "Kindergarten of Returned Children",
        "Dataset": "HERA",
        "name": "Kindergarten of Returned Children",
        "dataset": "HERA",
        "latitude": 35.18890439,
        "longitude": 45.9696133
      }
    },
    {
      "type": "Feature",
      "geometry": {
        "type": "Point",
        "coordinates": [
          45.97146568,
          35.19306659
        ]
      },
      "properties": {
        "Name": "No name",
        "Dataset": "HERA",
        "name": "No name",
        "dataset": "HERA",
        "latitude": 35.19306659,
        "longitude": 45.97146568
      }
    },
    {
      "type": "Feature",
      "geometry": {
        "type": "Point",
        "coordinates": [
          45.98768002,
          35.18343745
        ]
      },
      "properties": {
        "Name": "Parliament Garden",
        "Dataset": "HERA",
        "name": "Parliament Garden",
        "dataset": "HERA",
        "latitude": 35.18343745,
        "longitude": 45.98768002
      }
    },
    {
      "type": "Feature",
      "geometry": {
        "type": "Point",
        "coordinates": [
          45.9878196,
          35.178352
        ]
      },
      "properties": {
        "Name": "No name",
        "Dataset": "HERA",
        "name": "No name",
        "dataset": "HERA",
        "latitude": 35.178352,
        "longitude": 45.9878196
      }
    },
    {
      "type": "Feature",
      "geometry": {
        "type": "Point",
        "coordinates": [
          45.9752673,
          35.1823635
        ]
      },
      "properties": {
        "Name": "Baran Park",
        "Dataset": "HERA",
        "name": "Baran Park",
        "dataset": "HERA",
        "latitude": 35.1823635,
        "longitude": 45.9752673
      }
    },
    {
      "type": "Feature",
      "geometry": {
        "type": "Point",
        "coordinates": [
          45.9762864,
          35.1814471
        ]
      },
      "properties": {
        "Name": "Kurdistan Park",
        "Dataset": "HERA",
        "name": "Kurdistan Park",
        "dataset": "HERA",
        "latitude": 35.1814471,
        "longitude": 45.9762864
      }
    },
    {
      "type": "Feature",
      "geometry": {
        "type": "Point",
        "coordinates": [
          45.975329,
          35.1800315
        ]
      },
      "properties": {
        "Name": "Kimyabaran Garden",
        "Dataset": "HERA",
        "name": "Kimyabaran Garden",
        "dataset": "HERA",
        "latitude": 35.1800315,
        "longitude": 45.975329
      }
    },
    {
      "type": "Feature",
      "geometry": {
        "type": "Point",
        "coordinates": [
          45.9747706,
          35.1822581
        ]
      },
      "properties": {
        "Name": "Baran Park",
        "Dataset": "HERA",
        "name": "Baran Park",
        "dataset": "HERA",
        "latitude": 35.1822581,
        "longitude": 45.9747706
      }
    },
    {
      "type": "Feature",
      "geometry": {
        "type": "Point",
        "coordinates": [
          45.9670163,
          35.1883504
        ]
      },
      "properties": {
        "Name": "Kimyabaran Garden",
        "Dataset": "HERA",
        "name": "Kimyabaran Garden",
        "dataset": "HERA",
        "latitude": 35.1883504,
        "longitude": 45.9670163
      }
    },
    {
      "type": "Feature",
      "geometry": {
        "type": "Point",
        "coordinates": [
          45.96574685,
          35.20102746
        ]
      },
      "properties": {
        "Name": "No name",
        "Dataset": "HERA",
        "name": "No name",
        "dataset": "HERA",
        "latitude": 35.20102746,
        "longitude": 45.96574685
      }
    },
    {
      "type": "Feature",
      "geometry": {
        "type": "Point",
        "coordinates": [
          45.96917104,
          35.19381913
        ]
      },
      "properties": {
        "Name": "Hama Ahmed Mirawli Garden",
        "Dataset": "HERA",
        "name": "Hama Ahmed Mirawli Garden",
        "dataset": "HERA",
        "latitude": 35.19381913,
        "longitude": 45.96917104
      }
    },
    {
      "type": "Feature",
      "geometry": {
        "type": "Point",
        "coordinates": [
          45.9946676,
          35.1812958
        ]
      },
      "properties": {
        "Name": "Mamostayan Garden",
        "Dataset": "HERA",
        "name": "Mamostayan Garden",
        "dataset": "HERA",
        "latitude": 35.1812958,
        "longitude": 45.9946676
      }
    },
    {
      "type": "Feature",
      "geometry": {
        "type": "Point",
        "coordinates": [
          45.99985015,
          35.18513106
        ]
      },
      "properties": {
        "Name": "Shnaba Park",
        "Dataset": "HERA",
        "name": "Shnaba Park",
        "dataset": "HERA",
        "latitude": 35.18513106,
        "longitude": 45.99985015
      }
    },
    {
      "type": "Feature",
      "geometry": {
        "type": "Point",
        "coordinates": [
          45.9939313,
          35.18770096
        ]
      },
      "properties": {
        "Name": "Kubra Hamidpour Garden",
        "Dataset": "HERA",
        "name": "Kubra Hamidpour Garden",
        "dataset": "HERA",
        "latitude": 35.18770096,
        "longitude": 45.9939313
      }
    },
    {
      "type": "Feature",
      "geometry": {
        "type": "Point",
        "coordinates": [
          46.002677,
          35.1760882
        ]
      },
      "properties": {
        "Name": "Bakhtyari Garden",
        "Dataset": "HERA",
        "name": "Bakhtyari Garden",
        "dataset": "HERA",
        "latitude": 35.1760882,
        "longitude": 46.002677
      }
    },
    {
      "type": "Feature",
      "geometry": {
        "type": "Point",
        "coordinates": [
          46.00292935,
          35.19236668
        ]
      },
      "properties": {
        "Name": "Ali Abdullah Garden",
        "Dataset": "HERA",
        "name": "Ali Abdullah Garden",
        "dataset": "HERA",
        "latitude": 35.19236668,
        "longitude": 46.00292935
      }
    },
    {
      "type": "Feature",
      "geometry": {
        "type": "Point",
        "coordinates": [
          46.00057844,
          35.16959839
        ]
      },
      "properties": {
        "Name": "Halabja Amusement Park",
        "Dataset": "HERA",
        "name": "Halabja Amusement Park",
        "dataset": "HERA",
        "latitude": 35.16959839,
        "longitude": 46.00057844
      }
    },
    {
      "type": "Feature",
      "geometry": {
        "type": "Point",
        "coordinates": [
          45.9891349,
          35.1763479
        ]
      },
      "properties": {
        "Name": "Ali Bag Park",
        "Dataset": "HERA",
        "name": "Ali Bag Park",
        "dataset": "HERA",
        "latitude": 35.1763479,
        "longitude": 45.9891349
      }
    },
    {
      "type": "Feature",
      "geometry": {
        "type": "Point",
        "coordinates": [
          45.98574422,
          35.17190218
        ]
      },
      "properties": {
        "Name": "Meer Garden",
        "Dataset": "HERA",
        "name": "Meer Garden",
        "dataset": "HERA",
        "latitude": 35.17190218,
        "longitude": 45.98574422
      }
    },
    {
      "type": "Feature",
      "geometry": {
        "type": "Point",
        "coordinates": [
          46.02430588,
          35.19335716
        ]
      },
      "properties": {
        "Name": "Jalila Forest",
        "Dataset": "HERA",
        "name": "Jalila Forest",
        "dataset": "HERA",
        "latitude": 35.19335716,
        "longitude": 46.02430588
      }
    },
    {
      "type": "Feature",
      "geometry": {
        "type": "Point",
        "coordinates": [
          45.9393433,
          35.2561923
        ]
      },
      "properties": {
        "Name": "Mawhy Park",
        "Dataset": "HERA",
        "name": "Mawhy Park",
        "dataset": "HERA",
        "latitude": 35.2561923,
        "longitude": 45.9393433
      }
    },
    {
      "type": "Feature",
      "geometry": {
        "type": "Point",
        "coordinates": [
          45.9674646,
          35.1885941
        ]
      },
      "properties": {
        "Name": "No name",
        "Dataset": "HERA",
        "name": "No name",
        "dataset": "HERA",
        "latitude": 35.1885941,
        "longitude": 45.9674646
      }
    },
    {
      "type": "Feature",
      "geometry": {
        "type": "Point",
        "coordinates": [
          45.9700378,
          35.1982573
        ]
      },
      "properties": {
        "Name": "Halabja Sports Community",
        "Dataset": "HERA",
        "name": "Halabja Sports Community",
        "dataset": "HERA",
        "latitude": 35.1982573,
        "longitude": 45.9700378
      }
    },
    {
      "type": "Feature",
      "geometry": {
        "type": "Point",
        "coordinates": [
          45.99887692,
          35.18102164
        ]
      },
      "properties": {
        "Name": "Mamostayan Stadium",
        "Dataset": "HERA",
        "name": "Mamostayan Stadium",
        "dataset": "HERA",
        "latitude": 35.18102164,
        "longitude": 45.99887692
      }
    },
    {
      "type": "Feature",
      "geometry": {
        "type": "Point",
        "coordinates": [
          45.9599593,
          35.2036324
        ]
      },
      "properties": {
        "Name": "National Olympic Committee of Iraq - Halabja",
        "Dataset": "HERA",
        "name": "National Olympic Committee of Iraq - Halabja",
        "dataset": "HERA",
        "latitude": 35.2036324,
        "longitude": 45.9599593
      }
    },
    {
      "type": "Feature",
      "geometry": {
        "type": "Point",
        "coordinates": [
          46.1211,
          35.2301385
        ]
      },
      "properties": {
        "Name": "Shrine of the Sheikhs of Byara",
        "Dataset": "HERA",
        "name": "Shrine of the Sheikhs of Byara",
        "dataset": "HERA",
        "latitude": 35.2301385,
        "longitude": 46.1211
      }
    },
    {
      "type": "Feature",
      "geometry": {
        "type": "Point",
        "coordinates": [
          45.9606018,
          35.2028675
        ]
      },
      "properties": {
        "Name": "No name",
        "Dataset": "HERA",
        "name": "No name",
        "dataset": "HERA",
        "latitude": 35.2028675,
        "longitude": 45.9606018
      }
    },
    {
      "type": "Feature",
      "geometry": {
        "type": "Point",
        "coordinates": [
          46.12085035,
          35.23004111
        ]
      },
      "properties": {
        "Name": "Monastery and Madrasah of Byara Sharifa",
        "Dataset": "HERA",
        "name": "Monastery and Madrasah of Byara Sharifa",
        "dataset": "HERA",
        "latitude": 35.23004111,
        "longitude": 46.12085035
      }
    },
    {
      "type": "Feature",
      "geometry": {
        "type": "Point",
        "coordinates": [
          45.99590192,
          35.18502639
        ]
      },
      "properties": {
        "Name": "Shaho Hama Faraj Stadium",
        "Dataset": "HERA",
        "name": "Shaho Hama Faraj Stadium",
        "dataset": "HERA",
        "latitude": 35.18502639,
        "longitude": 45.99590192
      }
    },
    {
      "type": "Feature",
      "geometry": {
        "type": "Point",
        "coordinates": [
          46.18939935,
          35.21634703
        ]
      },
      "properties": {
        "Name": "Awesar Picnic Area",
        "Dataset": "HERA",
        "name": "Awesar Picnic Area",
        "dataset": "HERA",
        "latitude": 35.21634703,
        "longitude": 46.18939935
      }
    },
    {
      "type": "Feature",
      "geometry": {
        "type": "Point",
        "coordinates": [
          45.9952869,
          35.18541946
        ]
      },
      "properties": {
        "Name": "Ashkawal Futsal Stadium",
        "Dataset": "HERA",
        "name": "Ashkawal Futsal Stadium",
        "dataset": "HERA",
        "latitude": 35.18541946,
        "longitude": 45.9952869
      }
    },
    {
      "type": "Feature",
      "geometry": {
        "type": "Point",
        "coordinates": [
          46.1749795,
          35.1842665
        ]
      },
      "properties": {
        "Name": "Hansha Picnic Area",
        "Dataset": "HERA",
        "name": "Hansha Picnic Area",
        "dataset": "HERA",
        "latitude": 35.1842665,
        "longitude": 46.1749795
      }
    },
    {
      "type": "Feature",
      "geometry": {
        "type": "Point",
        "coordinates": [
          46.15588632,
          35.19695676
        ]
      },
      "properties": {
        "Name": "Meshla Picnic Community",
        "Dataset": "HERA",
        "name": "Meshla Picnic Community",
        "dataset": "HERA",
        "latitude": 35.19695676,
        "longitude": 46.15588632
      }
    },
    {
      "type": "Feature",
      "geometry": {
        "type": "Point",
        "coordinates": [
          45.934427,
          35.2602139
        ]
      },
      "properties": {
        "Name": "Rangin School",
        "Dataset": "HERA",
        "name": "Rangin School",
        "dataset": "HERA",
        "latitude": 35.2602139,
        "longitude": 45.934427
      }
    },
    {
      "type": "Feature",
      "geometry": {
        "type": "Point",
        "coordinates": [
          45.9342371,
          35.2603013
        ]
      },
      "properties": {
        "Name": "Makwan Primary School",
        "Dataset": "HERA",
        "name": "Makwan Primary School",
        "dataset": "HERA",
        "latitude": 35.2603013,
        "longitude": 45.9342371
      }
    },
    {
      "type": "Feature",
      "geometry": {
        "type": "Point",
        "coordinates": [
          45.9379998,
          35.2536339
        ]
      },
      "properties": {
        "Name": "Sirwan Primary School",
        "Dataset": "HERA",
        "name": "Sirwan Primary School",
        "dataset": "HERA",
        "latitude": 35.2536339,
        "longitude": 45.9379998
      }
    },
    {
      "type": "Feature",
      "geometry": {
        "type": "Point",
        "coordinates": [
          45.9365769,
          35.2536089
        ]
      },
      "properties": {
        "Name": "Hiwa Primary School",
        "Dataset": "HERA",
        "name": "Hiwa Primary School",
        "dataset": "HERA",
        "latitude": 35.2536089,
        "longitude": 45.9365769
      }
    },
    {
      "type": "Feature",
      "geometry": {
        "type": "Point",
        "coordinates": [
          45.9659037,
          35.2053733
        ]
      },
      "properties": {
        "Name": "Technical College of Practical Sciences/Halabja",
        "Dataset": "HERA",
        "name": "Technical College of Practical Sciences/Halabja",
        "dataset": "HERA",
        "latitude": 35.2053733,
        "longitude": 45.9659037
      }
    },
    {
      "type": "Feature",
      "geometry": {
        "type": "Point",
        "coordinates": [
          45.96551778,
          35.20615566
        ]
      },
      "properties": {
        "Name": "Halabja Technical Institute",
        "Dataset": "HERA",
        "name": "Halabja Technical Institute",
        "dataset": "HERA",
        "latitude": 35.20615566,
        "longitude": 45.96551778
      }
    },
    {
      "type": "Feature",
      "geometry": {
        "type": "Point",
        "coordinates": [
          45.9664548,
          35.2055145
        ]
      },
      "properties": {
        "Name": "College of Practical Sciences/Halabja",
        "Dataset": "HERA",
        "name": "College of Practical Sciences/Halabja",
        "dataset": "HERA",
        "latitude": 35.2055145,
        "longitude": 45.9664548
      }
    },
    {
      "type": "Feature",
      "geometry": {
        "type": "Point",
        "coordinates": [
          45.9775746,
          35.1789742
        ]
      },
      "properties": {
        "Name": "Mashkhalan Primary School",
        "Dataset": "HERA",
        "name": "Mashkhalan Primary School",
        "dataset": "HERA",
        "latitude": 35.1789742,
        "longitude": 45.9775746
      }
    },
    {
      "type": "Feature",
      "geometry": {
        "type": "Point",
        "coordinates": [
          45.9606012,
          35.2034
        ]
      },
      "properties": {
        "Name": "College of Primary Education and Humanities - Department of Primary Physical Education - Halabja University",
        "Dataset": "HERA",
        "name": "College of Primary Education and Humanities - Department of Primary Physical Education - Halabja University",
        "dataset": "HERA",
        "latitude": 35.2034,
        "longitude": 45.9606012
      }
    },
    {
      "type": "Feature",
      "geometry": {
        "type": "Point",
        "coordinates": [
          45.9745154,
          35.1804252
        ]
      },
      "properties": {
        "Name": "Binayee Kindergarten",
        "Dataset": "HERA",
        "name": "Binayee Kindergarten",
        "dataset": "HERA",
        "latitude": 35.1804252,
        "longitude": 45.9745154
      }
    },
    {
      "type": "Feature",
      "geometry": {
        "type": "Point",
        "coordinates": [
          45.96712986,
          35.18882202
        ]
      },
      "properties": {
        "Name": "Yaketi Brayan School",
        "Dataset": "HERA",
        "name": "Yaketi Brayan School",
        "dataset": "HERA",
        "latitude": 35.18882202,
        "longitude": 45.96712986
      }
    },
    {
      "type": "Feature",
      "geometry": {
        "type": "Point",
        "coordinates": [
          45.96714816,
          35.19743198
        ]
      },
      "properties": {
        "Name": "Mawlawi Primary School",
        "Dataset": "HERA",
        "name": "Mawlawi Primary School",
        "dataset": "HERA",
        "latitude": 35.19743198,
        "longitude": 45.96714816
      }
    },
    {
      "type": "Feature",
      "geometry": {
        "type": "Point",
        "coordinates": [
          46.00147181,
          35.18866075
        ]
      },
      "properties": {
        "Name": "Hakari Primary School",
        "Dataset": "HERA",
        "name": "Hakari Primary School",
        "dataset": "HERA",
        "latitude": 35.18866075,
        "longitude": 46.00147181
      }
    },
    {
      "type": "Feature",
      "geometry": {
        "type": "Point",
        "coordinates": [
          45.99477494,
          35.1815682
        ]
      },
      "properties": {
        "Name": "Bahasht Kindergarten",
        "Dataset": "HERA",
        "name": "Bahasht Kindergarten",
        "dataset": "HERA",
        "latitude": 35.1815682,
        "longitude": 45.99477494
      }
    },
    {
      "type": "Feature",
      "geometry": {
        "type": "Point",
        "coordinates": [
          45.970845,
          35.1957609
        ]
      },
      "properties": {
        "Name": "Halabja Encyclopedia Preparation Organization",
        "Dataset": "HERA",
        "name": "Halabja Encyclopedia Preparation Organization",
        "dataset": "HERA",
        "latitude": 35.1957609,
        "longitude": 45.970845
      }
    },
    {
      "type": "Feature",
      "geometry": {
        "type": "Point",
        "coordinates": [
          46.00178415,
          35.18576833
        ]
      },
      "properties": {
        "Name": "Halabja Contemporary Educational Society",
        "Dataset": "HERA",
        "name": "Halabja Contemporary Educational Society",
        "dataset": "HERA",
        "latitude": 35.18576833,
        "longitude": 46.00178415
      }
    },
    {
      "type": "Feature",
      "geometry": {
        "type": "Point",
        "coordinates": [
          46.00433685,
          35.18369476
        ]
      },
      "properties": {
        "Name": "Halabja Fine Arts Institute",
        "Dataset": "HERA",
        "name": "Halabja Fine Arts Institute",
        "dataset": "HERA",
        "latitude": 35.18369476,
        "longitude": 46.00433685
      }
    },
    {
      "type": "Feature",
      "geometry": {
        "type": "Point",
        "coordinates": [
          45.9910189,
          35.1757579
        ]
      },
      "properties": {
        "Name": "Shawnm Bamoki Kindergarten",
        "Dataset": "HERA",
        "name": "Shawnm Bamoki Kindergarten",
        "dataset": "HERA",
        "latitude": 35.1757579,
        "longitude": 45.9910189
      }
    },
    {
      "type": "Feature",
      "geometry": {
        "type": "Point",
        "coordinates": [
          45.9960571,
          35.1807655
        ]
      },
      "properties": {
        "Name": "Martyr Azad Hawrami Girls Primary School",
        "Dataset": "HERA",
        "name": "Martyr Azad Hawrami Girls Primary School",
        "dataset": "HERA",
        "latitude": 35.1807655,
        "longitude": 45.9960571
      }
    },
    {
      "type": "Feature",
      "geometry": {
        "type": "Point",
        "coordinates": [
          45.9965495,
          35.1797525
        ]
      },
      "properties": {
        "Name": "Halabja Kindergarten",
        "Dataset": "HERA",
        "name": "Halabja Kindergarten",
        "dataset": "HERA",
        "latitude": 35.1797525,
        "longitude": 45.9965495
      }
    },
    {
      "type": "Feature",
      "geometry": {
        "type": "Point",
        "coordinates": [
          45.99837391,
          35.1852846
        ]
      },
      "properties": {
        "Name": "Shnrwe Primary School",
        "Dataset": "HERA",
        "name": "Shnrwe Primary School",
        "dataset": "HERA",
        "latitude": 35.1852846,
        "longitude": 45.99837391
      }
    },
    {
      "type": "Feature",
      "geometry": {
        "type": "Point",
        "coordinates": [
          45.99858441,
          35.18540947
        ]
      },
      "properties": {
        "Name": "Kardogh Primary School",
        "Dataset": "HERA",
        "name": "Kardogh Primary School",
        "dataset": "HERA",
        "latitude": 35.18540947,
        "longitude": 45.99858441
      }
    },
    {
      "type": "Feature",
      "geometry": {
        "type": "Point",
        "coordinates": [
          45.99542259,
          35.18730659
        ]
      },
      "properties": {
        "Name": "Shahidani Kimyabaran Girls School",
        "Dataset": "HERA",
        "name": "Shahidani Kimyabaran Girls School",
        "dataset": "HERA",
        "latitude": 35.18730659,
        "longitude": 45.99542259
      }
    },
    {
      "type": "Feature",
      "geometry": {
        "type": "Point",
        "coordinates": [
          45.99550995,
          35.1872511
        ]
      },
      "properties": {
        "Name": "Ainda Gils Primary School",
        "Dataset": "HERA",
        "name": "Ainda Gils Primary School",
        "dataset": "HERA",
        "latitude": 35.1872511,
        "longitude": 45.99550995
      }
    },
    {
      "type": "Feature",
      "geometry": {
        "type": "Point",
        "coordinates": [
          45.99376845,
          35.18964932
        ]
      },
      "properties": {
        "Name": "Sharazur Primary School",
        "Dataset": "HERA",
        "name": "Sharazur Primary School",
        "dataset": "HERA",
        "latitude": 35.18964932,
        "longitude": 45.99376845
      }
    },
    {
      "type": "Feature",
      "geometry": {
        "type": "Point",
        "coordinates": [
          46.00448065,
          35.17415186
        ]
      },
      "properties": {
        "Name": "Ala Primary School, Bana School",
        "Dataset": "HERA",
        "name": "Ala Primary School, Bana School",
        "dataset": "HERA",
        "latitude": 35.17415186,
        "longitude": 46.00448065
      }
    },
    {
      "type": "Feature",
      "geometry": {
        "type": "Point",
        "coordinates": [
          45.9950708,
          35.19194853
        ]
      },
      "properties": {
        "Name": "Paryan Kindergarten",
        "Dataset": "HERA",
        "name": "Paryan Kindergarten",
        "dataset": "HERA",
        "latitude": 35.19194853,
        "longitude": 45.9950708
      }
    },
    {
      "type": "Feature",
      "geometry": {
        "type": "Point",
        "coordinates": [
          45.99159628,
          35.18539871
        ]
      },
      "properties": {
        "Name": "Landi Kindergarten",
        "Dataset": "HERA",
        "name": "Landi Kindergarten",
        "dataset": "HERA",
        "latitude": 35.18539871,
        "longitude": 45.99159628
      }
    },
    {
      "type": "Feature",
      "geometry": {
        "type": "Point",
        "coordinates": [
          46.03159443,
          35.16824107
        ]
      },
      "properties": {
        "Name": "Ababaeilei Primary School",
        "Dataset": "HERA",
        "name": "Ababaeilei Primary School",
        "dataset": "HERA",
        "latitude": 35.16824107,
        "longitude": 46.03159443
      }
    },
    {
      "type": "Feature",
      "geometry": {
        "type": "Point",
        "coordinates": [
          46.0229269,
          35.1728144
        ]
      },
      "properties": {
        "Name": "Halabja University",
        "Dataset": "HERA",
        "name": "Halabja University",
        "dataset": "HERA",
        "latitude": 35.1728144,
        "longitude": 46.0229269
      }
    },
    {
      "type": "Feature",
      "geometry": {
        "type": "Point",
        "coordinates": [
          46.00960225,
          35.1869346
        ]
      },
      "properties": {
        "Name": "Leaders Education Society",
        "Dataset": "HERA",
        "name": "Leaders Education Society",
        "dataset": "HERA",
        "latitude": 35.1869346,
        "longitude": 46.00960225
      }
    },
    {
      "type": "Feature",
      "geometry": {
        "type": "Point",
        "coordinates": [
          45.9872106,
          35.1822655
        ]
      },
      "properties": {
        "Name": "Shan Girls Primary School",
        "Dataset": "HERA",
        "name": "Shan Girls Primary School",
        "dataset": "HERA",
        "latitude": 35.1822655,
        "longitude": 45.9872106
      }
    },
    {
      "type": "Feature",
      "geometry": {
        "type": "Point",
        "coordinates": [
          45.98709717,
          35.18225133
        ]
      },
      "properties": {
        "Name": "Halabja Primary School",
        "Dataset": "HERA",
        "name": "Halabja Primary School",
        "dataset": "HERA",
        "latitude": 35.18225133,
        "longitude": 45.98709717
      }
    },
    {
      "type": "Feature",
      "geometry": {
        "type": "Point",
        "coordinates": [
          45.9421691,
          35.2537348
        ]
      },
      "properties": {
        "Name": "Shara Gils High School",
        "Dataset": "HERA",
        "name": "Shara Gils High School",
        "dataset": "HERA",
        "latitude": 35.2537348,
        "longitude": 45.9421691
      }
    },
    {
      "type": "Feature",
      "geometry": {
        "type": "Point",
        "coordinates": [
          45.9419676,
          35.2536379
        ]
      },
      "properties": {
        "Name": "Suren Boys High School",
        "Dataset": "HERA",
        "name": "Suren Boys High School",
        "dataset": "HERA",
        "latitude": 35.2536379,
        "longitude": 45.9419676
      }
    },
    {
      "type": "Feature",
      "geometry": {
        "type": "Point",
        "coordinates": [
          45.9429605,
          35.2518216
        ]
      },
      "properties": {
        "Name": "Raz Primary School",
        "Dataset": "HERA",
        "name": "Raz Primary School",
        "dataset": "HERA",
        "latitude": 35.2518216,
        "longitude": 45.9429605
      }
    },
    {
      "type": "Feature",
      "geometry": {
        "type": "Point",
        "coordinates": [
          45.9914449,
          35.1752222
        ]
      },
      "properties": {
        "Name": "Halabja Girls School",
        "Dataset": "HERA",
        "name": "Halabja Girls School",
        "dataset": "HERA",
        "latitude": 35.1752222,
        "longitude": 45.9914449
      }
    },
    {
      "type": "Feature",
      "geometry": {
        "type": "Point",
        "coordinates": [
          45.9879128,
          35.1759857
        ]
      },
      "properties": {
        "Name": "Aso Haji Mohammed Bamoki School",
        "Dataset": "HERA",
        "name": "Aso Haji Mohammed Bamoki School",
        "dataset": "HERA",
        "latitude": 35.1759857,
        "longitude": 45.9879128
      }
    },
    {
      "type": "Feature",
      "geometry": {
        "type": "Point",
        "coordinates": [
          45.9791874,
          35.1779237
        ]
      },
      "properties": {
        "Name": "Hamdoon School",
        "Dataset": "HERA",
        "name": "Hamdoon School",
        "dataset": "HERA",
        "latitude": 35.1779237,
        "longitude": 45.9791874
      }
    },
    {
      "type": "Feature",
      "geometry": {
        "type": "Point",
        "coordinates": [
          45.99409795,
          35.17392007
        ]
      },
      "properties": {
        "Name": "Sheikh Hama Amin Primary School",
        "Dataset": "HERA",
        "name": "Sheikh Hama Amin Primary School",
        "dataset": "HERA",
        "latitude": 35.17392007,
        "longitude": 45.99409795
      }
    },
    {
      "type": "Feature",
      "geometry": {
        "type": "Point",
        "coordinates": [
          46.00102134,
          35.17316116
        ]
      },
      "properties": {
        "Name": "Peshang Boys High School",
        "Dataset": "HERA",
        "name": "Peshang Boys High School",
        "dataset": "HERA",
        "latitude": 35.17316116,
        "longitude": 46.00102134
      }
    },
    {
      "type": "Feature",
      "geometry": {
        "type": "Point",
        "coordinates": [
          46.0009493,
          35.17316024
        ]
      },
      "properties": {
        "Name": "Shorshi Nwe Primary School",
        "Dataset": "HERA",
        "name": "Shorshi Nwe Primary School",
        "dataset": "HERA",
        "latitude": 35.17316024,
        "longitude": 46.0009493
      }
    },
    {
      "type": "Feature",
      "geometry": {
        "type": "Point",
        "coordinates": [
          45.98278259,
          35.18964954
        ]
      },
      "properties": {
        "Name": "Peshkawtn School",
        "Dataset": "HERA",
        "name": "Peshkawtn School",
        "dataset": "HERA",
        "latitude": 35.18964954,
        "longitude": 45.98278259
      }
    },
    {
      "type": "Feature",
      "geometry": {
        "type": "Point",
        "coordinates": [
          45.9801751,
          35.1723427
        ]
      },
      "properties": {
        "Name": "Balambo Boys School",
        "Dataset": "HERA",
        "name": "Balambo Boys School",
        "dataset": "HERA",
        "latitude": 35.1723427,
        "longitude": 45.9801751
      }
    },
    {
      "type": "Feature",
      "geometry": {
        "type": "Point",
        "coordinates": [
          45.9865837,
          35.174947
        ]
      },
      "properties": {
        "Name": "Ranew Institute",
        "Dataset": "HERA",
        "name": "Ranew Institute",
        "dataset": "HERA",
        "latitude": 35.174947,
        "longitude": 45.9865837
      }
    },
    {
      "type": "Feature",
      "geometry": {
        "type": "Point",
        "coordinates": [
          45.9892115,
          35.1742494
        ]
      },
      "properties": {
        "Name": "Adila Khanm Primary School",
        "Dataset": "HERA",
        "name": "Adila Khanm Primary School",
        "dataset": "HERA",
        "latitude": 35.1742494,
        "longitude": 45.9892115
      }
    },
    {
      "type": "Feature",
      "geometry": {
        "type": "Point",
        "coordinates": [
          45.9908866,
          35.1810429
        ]
      },
      "properties": {
        "Name": "Burhan Haji Mohammed School",
        "Dataset": "HERA",
        "name": "Burhan Haji Mohammed School",
        "dataset": "HERA",
        "latitude": 35.1810429,
        "longitude": 45.9908866
      }
    },
    {
      "type": "Feature",
      "geometry": {
        "type": "Point",
        "coordinates": [
          45.994186,
          35.17400971
        ]
      },
      "properties": {
        "Name": "Sheikh Hama Amin Primary School",
        "Dataset": "HERA",
        "name": "Sheikh Hama Amin Primary School",
        "dataset": "HERA",
        "latitude": 35.17400971,
        "longitude": 45.994186
      }
    },
    {
      "type": "Feature",
      "geometry": {
        "type": "Point",
        "coordinates": [
          45.98883379,
          35.17585528
        ]
      },
      "properties": {
        "Name": "Qala Institute",
        "Dataset": "HERA",
        "name": "Qala Institute",
        "dataset": "HERA",
        "latitude": 35.17585528,
        "longitude": 45.98883379
      }
    },
    {
      "type": "Feature",
      "geometry": {
        "type": "Point",
        "coordinates": [
          45.99397464,
          35.161917
        ]
      },
      "properties": {
        "Name": "Bamok Primary School",
        "Dataset": "HERA",
        "name": "Bamok Primary School",
        "dataset": "HERA",
        "latitude": 35.161917,
        "longitude": 45.99397464
      }
    },
    {
      "type": "Feature",
      "geometry": {
        "type": "Point",
        "coordinates": [
          45.98708294,
          35.17460626
        ]
      },
      "properties": {
        "Name": "Ranew Institute",
        "Dataset": "HERA",
        "name": "Ranew Institute",
        "dataset": "HERA",
        "latitude": 35.17460626,
        "longitude": 45.98708294
      }
    },
    {
      "type": "Feature",
      "geometry": {
        "type": "Point",
        "coordinates": [
          45.97957004,
          35.18595392
        ]
      },
      "properties": {
        "Name": "Shna Kindergarten",
        "Dataset": "HERA",
        "name": "Shna Kindergarten",
        "dataset": "HERA",
        "latitude": 35.18595392,
        "longitude": 45.97957004
      }
    },
    {
      "type": "Feature",
      "geometry": {
        "type": "Point",
        "coordinates": [
          45.9871219,
          35.1707934
        ]
      },
      "properties": {
        "Name": "Saya Kindergarten",
        "Dataset": "HERA",
        "name": "Saya Kindergarten",
        "dataset": "HERA",
        "latitude": 35.1707934,
        "longitude": 45.9871219
      }
    },
    {
      "type": "Feature",
      "geometry": {
        "type": "Point",
        "coordinates": [
          45.99994477,
          35.16260145
        ]
      },
      "properties": {
        "Name": "Halabja Shaheed Communal Boys College",
        "Dataset": "HERA",
        "name": "Halabja Shaheed Communal Boys College",
        "dataset": "HERA",
        "latitude": 35.16260145,
        "longitude": 45.99994477
      }
    },
    {
      "type": "Feature",
      "geometry": {
        "type": "Point",
        "coordinates": [
          45.9911207,
          35.192264
        ]
      },
      "properties": {
        "Name": "Shaid Anwar Muhandis School",
        "Dataset": "HERA",
        "name": "Shaid Anwar Muhandis School",
        "dataset": "HERA",
        "latitude": 35.192264,
        "longitude": 45.9911207
      }
    },
    {
      "type": "Feature",
      "geometry": {
        "type": "Point",
        "coordinates": [
          45.9854886,
          35.1693166
        ]
      },
      "properties": {
        "Name": "Mordana School",
        "Dataset": "HERA",
        "name": "Mordana School",
        "dataset": "HERA",
        "latitude": 35.1693166,
        "longitude": 45.9854886
      }
    },
    {
      "type": "Feature",
      "geometry": {
        "type": "Point",
        "coordinates": [
          45.98804768,
          35.1759662
        ]
      },
      "properties": {
        "Name": "Aso Haji Mohammed Bamoki School",
        "Dataset": "HERA",
        "name": "Aso Haji Mohammed Bamoki School",
        "dataset": "HERA",
        "latitude": 35.1759662,
        "longitude": 45.98804768
      }
    },
    {
      "type": "Feature",
      "geometry": {
        "type": "Point",
        "coordinates": [
          45.98493919,
          35.17645444
        ]
      },
      "properties": {
        "Name": "Leaders Kindergarten",
        "Dataset": "HERA",
        "name": "Leaders Kindergarten",
        "dataset": "HERA",
        "latitude": 35.17645444,
        "longitude": 45.98493919
      }
    },
    {
      "type": "Feature",
      "geometry": {
        "type": "Point",
        "coordinates": [
          45.98496752,
          35.17658061
        ]
      },
      "properties": {
        "Name": "Halabja Secondary School for Islamic Education",
        "Dataset": "HERA",
        "name": "Halabja Secondary School for Islamic Education",
        "dataset": "HERA",
        "latitude": 35.17658061,
        "longitude": 45.98496752
      }
    },
    {
      "type": "Feature",
      "geometry": {
        "type": "Point",
        "coordinates": [
          45.98489657,
          35.17661039
        ]
      },
      "properties": {
        "Name": "Hanar Private Kindergarten",
        "Dataset": "HERA",
        "name": "Hanar Private Kindergarten",
        "dataset": "HERA",
        "latitude": 35.17661039,
        "longitude": 45.98489657
      }
    },
    {
      "type": "Feature",
      "geometry": {
        "type": "Point",
        "coordinates": [
          45.989904,
          35.1612917
        ]
      },
      "properties": {
        "Name": "Pisha Mixed High School",
        "Dataset": "HERA",
        "name": "Pisha Mixed High School",
        "dataset": "HERA",
        "latitude": 35.1612917,
        "longitude": 45.989904
      }
    },
    {
      "type": "Feature",
      "geometry": {
        "type": "Point",
        "coordinates": [
          45.9900046,
          35.16130787
        ]
      },
      "properties": {
        "Name": "Halabja Private Institute for Computer Science",
        "Dataset": "HERA",
        "name": "Halabja Private Institute for Computer Science",
        "dataset": "HERA",
        "latitude": 35.16130787,
        "longitude": 45.9900046
      }
    },
    {
      "type": "Feature",
      "geometry": {
        "type": "Point",
        "coordinates": [
          45.9823065,
          35.1804033
        ]
      },
      "properties": {
        "Name": "Haji Mohammed Bamoki Public Library",
        "Dataset": "HERA",
        "name": "Haji Mohammed Bamoki Public Library",
        "dataset": "HERA",
        "latitude": 35.1804033,
        "longitude": 45.9823065
      }
    },
    {
      "type": "Feature",
      "geometry": {
        "type": "Point",
        "coordinates": [
          45.9823777,
          35.1797275
        ]
      },
      "properties": {
        "Name": "Marzaboto School",
        "Dataset": "HERA",
        "name": "Marzaboto School",
        "dataset": "HERA",
        "latitude": 35.1797275,
        "longitude": 45.9823777
      }
    },
    {
      "type": "Feature",
      "geometry": {
        "type": "Point",
        "coordinates": [
          45.98267765,
          35.17889589
        ]
      },
      "properties": {
        "Name": "Halabja Shahid School for Accelerated Learning",
        "Dataset": "HERA",
        "name": "Halabja Shahid School for Accelerated Learning",
        "dataset": "HERA",
        "latitude": 35.17889589,
        "longitude": 45.98267765
      }
    },
    {
      "type": "Feature",
      "geometry": {
        "type": "Point",
        "coordinates": [
          45.9835316,
          35.1745684
        ]
      },
      "properties": {
        "Name": "Kurdistan Mixed-gender High School",
        "Dataset": "HERA",
        "name": "Kurdistan Mixed-gender High School",
        "dataset": "HERA",
        "latitude": 35.1745684,
        "longitude": 45.9835316
      }
    },
    {
      "type": "Feature",
      "geometry": {
        "type": "Point",
        "coordinates": [
          45.98420844,
          35.17461328
        ]
      },
      "properties": {
        "Name": "Salim Primary School",
        "Dataset": "HERA",
        "name": "Salim Primary School",
        "dataset": "HERA",
        "latitude": 35.17461328,
        "longitude": 45.98420844
      }
    },
    {
      "type": "Feature",
      "geometry": {
        "type": "Point",
        "coordinates": [
          45.98331375,
          35.17202793
        ]
      },
      "properties": {
        "Name": "Bakhi Meer Kindergarten",
        "Dataset": "HERA",
        "name": "Bakhi Meer Kindergarten",
        "dataset": "HERA",
        "latitude": 35.17202793,
        "longitude": 45.98331375
      }
    },
    {
      "type": "Feature",
      "geometry": {
        "type": "Point",
        "coordinates": [
          45.9833396,
          35.1712296
        ]
      },
      "properties": {
        "Name": "Kani Ashqan Boy's Primary School",
        "Dataset": "HERA",
        "name": "Kani Ashqan Boy's Primary School",
        "dataset": "HERA",
        "latitude": 35.1712296,
        "longitude": 45.9833396
      }
    },
    {
      "type": "Feature",
      "geometry": {
        "type": "Point",
        "coordinates": [
          45.9914901,
          35.1833285
        ]
      },
      "properties": {
        "Name": "Ahmed Mukhtar Jaff High School",
        "Dataset": "HERA",
        "name": "Ahmed Mukhtar Jaff High School",
        "dataset": "HERA",
        "latitude": 35.1833285,
        "longitude": 45.9914901
      }
    },
    {
      "type": "Feature",
      "geometry": {
        "type": "Point",
        "coordinates": [
          45.9450304,
          35.248486
        ]
      },
      "properties": {
        "Name": "Harez School",
        "Dataset": "HERA",
        "name": "Harez School",
        "dataset": "HERA",
        "latitude": 35.248486,
        "longitude": 45.9450304
      }
    },
    {
      "type": "Feature",
      "geometry": {
        "type": "Point",
        "coordinates": [
          45.9461001,
          35.2473267
        ]
      },
      "properties": {
        "Name": "Nada Organization for Education",
        "Dataset": "HERA",
        "name": "Nada Organization for Education",
        "dataset": "HERA",
        "latitude": 35.2473267,
        "longitude": 45.9461001
      }
    },
    {
      "type": "Feature",
      "geometry": {
        "type": "Point",
        "coordinates": [
          45.9826625,
          35.17881998
        ]
      },
      "properties": {
        "Name": "Halabja Shahid School for Accelerated Learning",
        "Dataset": "HERA",
        "name": "Halabja Shahid School for Accelerated Learning",
        "dataset": "HERA",
        "latitude": 35.17881998,
        "longitude": 45.9826625
      }
    },
    {
      "type": "Feature",
      "geometry": {
        "type": "Point",
        "coordinates": [
          45.98141684,
          35.18107012
        ]
      },
      "properties": {
        "Name": "Goran School",
        "Dataset": "HERA",
        "name": "Goran School",
        "dataset": "HERA",
        "latitude": 35.18107012,
        "longitude": 45.98141684
      }
    },
    {
      "type": "Feature",
      "geometry": {
        "type": "Point",
        "coordinates": [
          45.96852816,
          35.18477781
        ]
      },
      "properties": {
        "Name": "Hassan Awa Girls Primary School",
        "Dataset": "HERA",
        "name": "Hassan Awa Girls Primary School",
        "dataset": "HERA",
        "latitude": 35.18477781,
        "longitude": 45.96852816
      }
    },
    {
      "type": "Feature",
      "geometry": {
        "type": "Point",
        "coordinates": [
          45.968256,
          35.184643
        ]
      },
      "properties": {
        "Name": "Yaketi Brayan School",
        "Dataset": "HERA",
        "name": "Yaketi Brayan School",
        "dataset": "HERA",
        "latitude": 35.184643,
        "longitude": 45.968256
      }
    },
    {
      "type": "Feature",
      "geometry": {
        "type": "Point",
        "coordinates": [
          45.9714785,
          35.18295508
        ]
      },
      "properties": {
        "Name": "Bamo Primary School",
        "Dataset": "HERA",
        "name": "Bamo Primary School",
        "dataset": "HERA",
        "latitude": 35.18295508,
        "longitude": 45.9714785
      }
    },
    {
      "type": "Feature",
      "geometry": {
        "type": "Point",
        "coordinates": [
          45.971573,
          35.1831293
        ]
      },
      "properties": {
        "Name": "Martyr Abdulrahman Mirza Hassan Girls High School",
        "Dataset": "HERA",
        "name": "Martyr Abdulrahman Mirza Hassan Girls High School",
        "dataset": "HERA",
        "latitude": 35.1831293,
        "longitude": 45.971573
      }
    },
    {
      "type": "Feature",
      "geometry": {
        "type": "Point",
        "coordinates": [
          46.0367502,
          35.28920987
        ]
      },
      "properties": {
        "Name": "Dr. Mustafa Zalmi Private Basic School",
        "Dataset": "HERA",
        "name": "Dr. Mustafa Zalmi Private Basic School",
        "dataset": "HERA",
        "latitude": 35.28920987,
        "longitude": 46.0367502
      }
    },
    {
      "type": "Feature",
      "geometry": {
        "type": "Point",
        "coordinates": [
          46.04028268,
          35.29032375
        ]
      },
      "properties": {
        "Name": "Gulanbar Gilrs School",
        "Dataset": "HERA",
        "name": "Gulanbar Gilrs School",
        "dataset": "HERA",
        "latitude": 35.29032375,
        "longitude": 46.04028268
      }
    },
    {
      "type": "Feature",
      "geometry": {
        "type": "Point",
        "coordinates": [
          46.03668022,
          35.29172356
        ]
      },
      "properties": {
        "Name": "Ahmed Khani Primary School",
        "Dataset": "HERA",
        "name": "Ahmed Khani Primary School",
        "dataset": "HERA",
        "latitude": 35.29172356,
        "longitude": 46.03668022
      }
    },
    {
      "type": "Feature",
      "geometry": {
        "type": "Point",
        "coordinates": [
          46.03130417,
          35.29695986
        ]
      },
      "properties": {
        "Name": "Khurmal Primary School",
        "Dataset": "HERA",
        "name": "Khurmal Primary School",
        "dataset": "HERA",
        "latitude": 35.29695986,
        "longitude": 46.03130417
      }
    },
    {
      "type": "Feature",
      "geometry": {
        "type": "Point",
        "coordinates": [
          46.04252078,
          35.29412026
        ]
      },
      "properties": {
        "Name": "Khurmal Kindergarten",
        "Dataset": "HERA",
        "name": "Khurmal Kindergarten",
        "dataset": "HERA",
        "latitude": 35.29412026,
        "longitude": 46.04252078
      }
    },
    {
      "type": "Feature",
      "geometry": {
        "type": "Point",
        "coordinates": [
          46.04616378,
          35.29574142
        ]
      },
      "properties": {
        "Name": "Khurmal Mixed-gender High School",
        "Dataset": "HERA",
        "name": "Khurmal Mixed-gender High School",
        "dataset": "HERA",
        "latitude": 35.29574142,
        "longitude": 46.04616378
      }
    },
    {
      "type": "Feature",
      "geometry": {
        "type": "Point",
        "coordinates": [
          46.0653606,
          35.29751394
        ]
      },
      "properties": {
        "Name": "Dwarozh Evening Primary School",
        "Dataset": "HERA",
        "name": "Dwarozh Evening Primary School",
        "dataset": "HERA",
        "latitude": 35.29751394,
        "longitude": 46.0653606
      }
    },
    {
      "type": "Feature",
      "geometry": {
        "type": "Point",
        "coordinates": [
          46.04164523,
          35.29437365
        ]
      },
      "properties": {
        "Name": "Karwan Nawbakhani",
        "Dataset": "HERA",
        "name": "Karwan Nawbakhani",
        "dataset": "HERA",
        "latitude": 35.29437365,
        "longitude": 46.04164523
      }
    },
    {
      "type": "Feature",
      "geometry": {
        "type": "Point",
        "coordinates": [
          46.03503722,
          35.30023702
        ]
      },
      "properties": {
        "Name": "Hawl Gilrs School",
        "Dataset": "HERA",
        "name": "Hawl Gilrs School",
        "dataset": "HERA",
        "latitude": 35.30023702,
        "longitude": 46.03503722
      }
    },
    {
      "type": "Feature",
      "geometry": {
        "type": "Point",
        "coordinates": [
          46.0350152,
          35.3001845
        ]
      },
      "properties": {
        "Name": "Awesar Hawre Primary School",
        "Dataset": "HERA",
        "name": "Awesar Hawre Primary School",
        "dataset": "HERA",
        "latitude": 35.3001845,
        "longitude": 46.0350152
      }
    },
    {
      "type": "Feature",
      "geometry": {
        "type": "Point",
        "coordinates": [
          46.0371948,
          35.3001375
        ]
      },
      "properties": {
        "Name": "Besaran Hawre Primary School",
        "Dataset": "HERA",
        "name": "Besaran Hawre Primary School",
        "dataset": "HERA",
        "latitude": 35.3001375,
        "longitude": 46.0371948
      }
    },
    {
      "type": "Feature",
      "geometry": {
        "type": "Point",
        "coordinates": [
          46.11994858,
          35.22230961
        ]
      },
      "properties": {
        "Name": "Byara Boys Secondary School",
        "Dataset": "HERA",
        "name": "Byara Boys Secondary School",
        "dataset": "HERA",
        "latitude": 35.22230961,
        "longitude": 46.11994858
      }
    },
    {
      "type": "Feature",
      "geometry": {
        "type": "Point",
        "coordinates": [
          46.11985956,
          35.22238897
        ]
      },
      "properties": {
        "Name": "Byara Primary School",
        "Dataset": "HERA",
        "name": "Byara Primary School",
        "dataset": "HERA",
        "latitude": 35.22238897,
        "longitude": 46.11985956
      }
    },
    {
      "type": "Feature",
      "geometry": {
        "type": "Point",
        "coordinates": [
          46.11961094,
          35.22415395
        ]
      },
      "properties": {
        "Name": "Dr. Mohammed Amin Hawramani Cultural Center",
        "Dataset": "HERA",
        "name": "Dr. Mohammed Amin Hawramani Cultural Center",
        "dataset": "HERA",
        "latitude": 35.22415395,
        "longitude": 46.11961094
      }
    },
    {
      "type": "Feature",
      "geometry": {
        "type": "Point",
        "coordinates": [
          46.1143306,
          35.2279192
        ]
      },
      "properties": {
        "Name": "Byara Sharifa Girls Secondary School",
        "Dataset": "HERA",
        "name": "Byara Sharifa Girls Secondary School",
        "dataset": "HERA",
        "latitude": 35.2279192,
        "longitude": 46.1143306
      }
    },
    {
      "type": "Feature",
      "geometry": {
        "type": "Point",
        "coordinates": [
          46.1150472,
          35.2276763
        ]
      },
      "properties": {
        "Name": "Byara Kindergarten",
        "Dataset": "HERA",
        "name": "Byara Kindergarten",
        "dataset": "HERA",
        "latitude": 35.2276763,
        "longitude": 46.1150472
      }
    },
    {
      "type": "Feature",
      "geometry": {
        "type": "Point",
        "coordinates": [
          46.18572,
          35.20058
        ]
      },
      "properties": {
        "Name": "Lhon Primary School",
        "Dataset": "HERA",
        "name": "Lhon Primary School",
        "dataset": "HERA",
        "latitude": 35.20058,
        "longitude": 46.18572
      }
    },
    {
      "type": "Feature",
      "geometry": {
        "type": "Point",
        "coordinates": [
          46.1850477,
          35.198377
        ]
      },
      "properties": {
        "Name": "Tawela Primary School",
        "Dataset": "HERA",
        "name": "Tawela Primary School",
        "dataset": "HERA",
        "latitude": 35.198377,
        "longitude": 46.1850477
      }
    },
    {
      "type": "Feature",
      "geometry": {
        "type": "Point",
        "coordinates": [
          46.18739909,
          35.20083426
        ]
      },
      "properties": {
        "Name": "Tawela Kindergarten",
        "Dataset": "HERA",
        "name": "Tawela Kindergarten",
        "dataset": "HERA",
        "latitude": 35.20083426,
        "longitude": 46.18739909
      }
    },
    {
      "type": "Feature",
      "geometry": {
        "type": "Point",
        "coordinates": [
          46.18853755,
          35.20130318
        ]
      },
      "properties": {
        "Name": "Mahmood Khani Dzli Primary School",
        "Dataset": "HERA",
        "name": "Mahmood Khani Dzli Primary School",
        "dataset": "HERA",
        "latitude": 35.20130318,
        "longitude": 46.18853755
      }
    },
    {
      "type": "Feature",
      "geometry": {
        "type": "Point",
        "coordinates": [
          46.15124183,
          35.19964726
        ]
      },
      "properties": {
        "Name": "Balkha Primary School",
        "Dataset": "HERA",
        "name": "Balkha Primary School",
        "dataset": "HERA",
        "latitude": 35.19964726,
        "longitude": 46.15124183
      }
    },
    {
      "type": "Feature",
      "geometry": {
        "type": "Point",
        "coordinates": [
          46.0029442,
          35.1734365
        ]
      },
      "properties": {
        "Name": "Bakhtyari Stadium",
        "Dataset": "HERA",
        "name": "Bakhtyari Stadium",
        "dataset": "HERA",
        "latitude": 35.1734365,
        "longitude": 46.0029442
      }
    },
    {
      "type": "Feature",
      "geometry": {
        "type": "Point",
        "coordinates": [
          46.0021213,
          35.1843718
        ]
      },
      "properties": {
        "Name": "Aso Stadium",
        "Dataset": "HERA",
        "name": "Aso Stadium",
        "dataset": "HERA",
        "latitude": 35.1843718,
        "longitude": 46.0021213
      }
    },
    {
      "type": "Feature",
      "geometry": {
        "type": "Point",
        "coordinates": [
          45.97071317,
          35.1914332
        ]
      },
      "properties": {
        "Name": "Bamok School",
        "Dataset": "HERA",
        "name": "Bamok School",
        "dataset": "HERA",
        "latitude": 35.1914332,
        "longitude": 45.97071317
      }
    },
    {
      "type": "Feature",
      "geometry": {
        "type": "Point",
        "coordinates": [
          46.03912802,
          35.2950302
        ]
      },
      "properties": {
        "Name": "Khurmal Public Library",
        "Dataset": "HERA",
        "name": "Khurmal Public Library",
        "dataset": "HERA",
        "latitude": 35.2950302,
        "longitude": 46.03912802
      }
    },
    {
      "type": "Feature",
      "geometry": {
        "type": "Point",
        "coordinates": [
          45.9378674,
          35.2538547
        ]
      },
      "properties": {
        "Name": "Sirwan Public Library",
        "Dataset": "HERA",
        "name": "Sirwan Public Library",
        "dataset": "HERA",
        "latitude": 35.2538547,
        "longitude": 45.9378674
      }
    },
    {
      "type": "Feature",
      "geometry": {
        "type": "Point",
        "coordinates": [
          46.00448065,
          35.17415186
        ]
      },
      "properties": {
        "Name": "Bana Primary School",
        "Dataset": "HERA",
        "name": "Bana Primary School",
        "dataset": "HERA",
        "latitude": 35.17415186,
        "longitude": 46.00448065
      }
    },
    {
      "type": "Feature",
      "geometry": {
        "type": "Point",
        "coordinates": [
          45.9960571,
          35.1807655
        ]
      },
      "properties": {
        "Name": "Bzav Primary School",
        "Dataset": "HERA",
        "name": "Bzav Primary School",
        "dataset": "HERA",
        "latitude": 35.1807655,
        "longitude": 45.9960571
      }
    },
    {
      "type": "Feature",
      "geometry": {
        "type": "Point",
        "coordinates": [
          45.9892115,
          35.1742494
        ]
      },
      "properties": {
        "Name": "Darsim Primary School",
        "Dataset": "HERA",
        "name": "Darsim Primary School",
        "dataset": "HERA",
        "latitude": 35.1742494,
        "longitude": 45.9892115
      }
    },
    {
      "type": "Feature",
      "geometry": {
        "type": "Point",
        "coordinates": [
          46.00948189,
          35.18676803
        ]
      },
      "properties": {
        "Name": "Hazhar Mukriyani Primary School",
        "Dataset": "HERA",
        "name": "Hazhar Mukriyani Primary School",
        "dataset": "HERA",
        "latitude": 35.18676803,
        "longitude": 46.00948189
      }
    },
    {
      "type": "Feature",
      "geometry": {
        "type": "Point",
        "coordinates": [
          45.9908866,
          35.1810429
        ]
      },
      "properties": {
        "Name": "Mahabad Girls' Evening High School",
        "Dataset": "HERA",
        "name": "Mahabad Girls' Evening High School",
        "dataset": "HERA",
        "latitude": 35.1810429,
        "longitude": 45.9908866
      }
    },
    {
      "type": "Feature",
      "geometry": {
        "type": "Point",
        "coordinates": [
          46.0099457,
          35.18661911
        ]
      },
      "properties": {
        "Name": "Sardasht Primary School",
        "Dataset": "HERA",
        "name": "Sardasht Primary School",
        "dataset": "HERA",
        "latitude": 35.18661911,
        "longitude": 46.0099457
      }
    },
    {
      "type": "Feature",
      "geometry": {
        "type": "Point",
        "coordinates": [
          46.00250035,
          35.17335932
        ]
      },
      "properties": {
        "Name": "Shnrwe Futsal Play Yard",
        "Dataset": "HERA",
        "name": "Shnrwe Futsal Play Yard",
        "dataset": "HERA",
        "latitude": 35.17335932,
        "longitude": 46.00250035
      }
    },
    {
      "type": "Feature",
      "geometry": {
        "type": "Point",
        "coordinates": [
          45.9891802,
          35.1793544
        ]
      },
      "properties": {
        "Name": "Tennis Center",
        "Dataset": "HERA",
        "name": "Tennis Center",
        "dataset": "HERA",
        "latitude": 35.1793544,
        "longitude": 45.9891802
      }
    },
    {
      "type": "Feature",
      "geometry": {
        "type": "Point",
        "coordinates": [
          45.9836777,
          35.167622
        ]
      },
      "properties": {
        "Name": "Kani Ashqan Stadium",
        "Dataset": "HERA",
        "name": "Kani Ashqan Stadium",
        "dataset": "HERA",
        "latitude": 35.167622,
        "longitude": 45.9836777
      }
    },
    {
      "type": "Feature",
      "geometry": {
        "type": "Point",
        "coordinates": [
          46.02081265,
          35.21033562
        ]
      },
      "properties": {
        "Name": "Anab Stadium",
        "Dataset": "HERA",
        "name": "Anab Stadium",
        "dataset": "HERA",
        "latitude": 35.21033562,
        "longitude": 46.02081265
      }
    },
    {
      "type": "Feature",
      "geometry": {
        "type": "Point",
        "coordinates": [
          46.04109885,
          35.29494755
        ]
      },
      "properties": {
        "Name": "Khurmal Public Stadium",
        "Dataset": "HERA",
        "name": "Khurmal Public Stadium",
        "dataset": "HERA",
        "latitude": 35.29494755,
        "longitude": 46.04109885
      }
    },
    {
      "type": "Feature",
      "geometry": {
        "type": "Point",
        "coordinates": [
          45.9902419,
          35.1813122
        ]
      },
      "properties": {
        "Name": "The Unknown Teacher",
        "Dataset": "HERA",
        "name": "The Unknown Teacher",
        "dataset": "HERA",
        "latitude": 35.1813122,
        "longitude": 45.9902419
      }
    },
    {
      "type": "Feature",
      "geometry": {
        "type": "Point",
        "coordinates": [
          45.9851584,
          35.1936551
        ]
      },
      "properties": {
        "Name": "The Poet Goran",
        "Dataset": "HERA",
        "name": "The Poet Goran",
        "dataset": "HERA",
        "latitude": 35.1936551,
        "longitude": 45.9851584
      }
    },
    {
      "type": "Feature",
      "geometry": {
        "type": "Point",
        "coordinates": [
          45.9851233,
          35.193754
        ]
      },
      "properties": {
        "Name": "Statue of Mawlawi",
        "Dataset": "HERA",
        "name": "Statue of Mawlawi",
        "dataset": "HERA",
        "latitude": 35.193754,
        "longitude": 45.9851233
      }
    },
    {
      "type": "Feature",
      "geometry": {
        "type": "Point",
        "coordinates": [
          45.97336606,
          35.19060229
        ]
      },
      "properties": {
        "Name": "No name",
        "Dataset": "HERA",
        "name": "No name",
        "dataset": "HERA",
        "latitude": 35.19060229,
        "longitude": 45.97336606
      }
    },
    {
      "type": "Feature",
      "geometry": {
        "type": "Point",
        "coordinates": [
          45.9719105,
          35.1928375
        ]
      },
      "properties": {
        "Name": "No name",
        "Dataset": "HERA",
        "name": "No name",
        "dataset": "HERA",
        "latitude": 35.1928375,
        "longitude": 45.9719105
      }
    },
    {
      "type": "Feature",
      "geometry": {
        "type": "Point",
        "coordinates": [
          45.9887105,
          35.1764619
        ]
      },
      "properties": {
        "Name": "Statue of Adila Khanm",
        "Dataset": "HERA",
        "name": "Statue of Adila Khanm",
        "dataset": "HERA",
        "latitude": 35.1764619,
        "longitude": 45.9887105
      }
    },
    {
      "type": "Feature",
      "geometry": {
        "type": "Point",
        "coordinates": [
          45.98937479,
          35.17651178
        ]
      },
      "properties": {
        "Name": "Mayor Latif Qadir Ibrahim",
        "Dataset": "HERA",
        "name": "Mayor Latif Qadir Ibrahim",
        "dataset": "HERA",
        "latitude": 35.17651178,
        "longitude": 45.98937479
      }
    },
    {
      "type": "Feature",
      "geometry": {
        "type": "Point",
        "coordinates": [
          45.96548684,
          35.20474325
        ]
      },
      "properties": {
        "Name": "Sculpture",
        "Dataset": "HERA",
        "name": "Sculpture",
        "dataset": "HERA",
        "latitude": 35.20474325,
        "longitude": 45.96548684
      }
    },
    {
      "type": "Feature",
      "geometry": {
        "type": "Point",
        "coordinates": [
          45.97465241,
          35.18795006
        ]
      },
      "properties": {
        "Name": "Statue of Martyr Leader Abdul Rahman Mirza Hassan",
        "Dataset": "HERA",
        "name": "Statue of Martyr Leader Abdul Rahman Mirza Hassan",
        "dataset": "HERA",
        "latitude": 35.18795006,
        "longitude": 45.97465241
      }
    },
    {
      "type": "Feature",
      "geometry": {
        "type": "Point",
        "coordinates": [
          45.9888603,
          35.17620156
        ]
      },
      "properties": {
        "Name": "Statue of Tofiq Hama Ali",
        "Dataset": "HERA",
        "name": "Statue of Tofiq Hama Ali",
        "dataset": "HERA",
        "latitude": 35.17620156,
        "longitude": 45.9888603
      }
    },
    {
      "type": "Feature",
      "geometry": {
        "type": "Point",
        "coordinates": [
          45.98320688,
          35.17829849
        ]
      },
      "properties": {
        "Name": "Omeri Khawar",
        "Dataset": "HERA",
        "name": "Omeri Khawar",
        "dataset": "HERA",
        "latitude": 35.17829849,
        "longitude": 45.98320688
      }
    },
    {
      "type": "Feature",
      "geometry": {
        "type": "Point",
        "coordinates": [
          45.9750412,
          35.1932299
        ]
      },
      "properties": {
        "Name": "Statue of Horse",
        "Dataset": "HERA",
        "name": "Statue of Horse",
        "dataset": "HERA",
        "latitude": 35.1932299,
        "longitude": 45.9750412
      }
    },
    {
      "type": "Feature",
      "geometry": {
        "type": "Point",
        "coordinates": [
          45.9983155,
          35.1754851
        ]
      },
      "properties": {
        "Name": "Statue of Shahidan Cemetery",
        "Dataset": "HERA",
        "name": "Statue of Shahidan Cemetery",
        "dataset": "HERA",
        "latitude": 35.1754851,
        "longitude": 45.9983155
      }
    },
    {
      "type": "Feature",
      "geometry": {
        "type": "Point",
        "coordinates": [
          45.98651011,
          35.17776412
        ]
      },
      "properties": {
        "Name": "The Dry Pool",
        "Dataset": "HERA",
        "name": "The Dry Pool",
        "dataset": "HERA",
        "latitude": 35.17776412,
        "longitude": 45.98651011
      }
    },
    {
      "type": "Feature",
      "geometry": {
        "type": "Point",
        "coordinates": [
          45.99172415,
          35.1830039
        ]
      },
      "properties": {
        "Name": "Ahmed Mukhtar Bagi Jaff",
        "Dataset": "HERA",
        "name": "Ahmed Mukhtar Bagi Jaff",
        "dataset": "HERA",
        "latitude": 35.1830039,
        "longitude": 45.99172415
      }
    },
    {
      "type": "Feature",
      "geometry": {
        "type": "Point",
        "coordinates": [
          45.96881842,
          35.1976968
        ]
      },
      "properties": {
        "Name": "Halabja Swimming Pool",
        "Dataset": "HERA",
        "name": "Halabja Swimming Pool",
        "dataset": "HERA",
        "latitude": 35.1976968,
        "longitude": 45.96881842
      }
    },
    {
      "type": "Feature",
      "geometry": {
        "type": "Point",
        "coordinates": [
          45.97066083,
          35.19429131
        ]
      },
      "properties": {
        "Name": "Mekhak Billiards and Cafeteria",
        "Dataset": "HERA",
        "name": "Mekhak Billiards and Cafeteria",
        "dataset": "HERA",
        "latitude": 35.19429131,
        "longitude": 45.97066083
      }
    },
    {
      "type": "Feature",
      "geometry": {
        "type": "Point",
        "coordinates": [
          45.99650308,
          35.17803873
        ]
      },
      "properties": {
        "Name": "Fitness Life",
        "Dataset": "HERA",
        "name": "Fitness Life",
        "dataset": "HERA",
        "latitude": 35.17803873,
        "longitude": 45.99650308
      }
    },
    {
      "type": "Feature",
      "geometry": {
        "type": "Point",
        "coordinates": [
          45.9606471,
          35.2028997
        ]
      },
      "properties": {
        "Name": "International Swimming Pool",
        "Dataset": "HERA",
        "name": "International Swimming Pool",
        "dataset": "HERA",
        "latitude": 35.2028997,
        "longitude": 45.9606471
      }
    },
    {
      "type": "Feature",
      "geometry": {
        "type": "Point",
        "coordinates": [
          45.99227124,
          35.18413751
        ]
      },
      "properties": {
        "Name": "Tatlises Billiards and Cafeteria",
        "Dataset": "HERA",
        "name": "Tatlises Billiards and Cafeteria",
        "dataset": "HERA",
        "latitude": 35.18413751,
        "longitude": 45.99227124
      }
    },
    {
      "type": "Feature",
      "geometry": {
        "type": "Point",
        "coordinates": [
          45.9870564,
          35.1840652
        ]
      },
      "properties": {
        "Name": "S A Fitness Center",
        "Dataset": "HERA",
        "name": "S A Fitness Center",
        "dataset": "HERA",
        "latitude": 35.1840652,
        "longitude": 45.9870564
      }
    },
    {
      "type": "Feature",
      "geometry": {
        "type": "Point",
        "coordinates": [
          45.9983233,
          35.1773616
        ]
      },
      "properties": {
        "Name": "Gold Gym",
        "Dataset": "HERA",
        "name": "Gold Gym",
        "dataset": "HERA",
        "latitude": 35.1773616,
        "longitude": 45.9983233
      }
    },
    {
      "type": "Feature",
      "geometry": {
        "type": "Point",
        "coordinates": [
          46.00409561,
          35.16844359
        ]
      },
      "properties": {
        "Name": "Halabja Amusement Park Swimming Pool",
        "Dataset": "HERA",
        "name": "Halabja Amusement Park Swimming Pool",
        "dataset": "HERA",
        "latitude": 35.16844359,
        "longitude": 46.00409561
      }
    },
    {
      "type": "Feature",
      "geometry": {
        "type": "Point",
        "coordinates": [
          46.00018836,
          35.17055235
        ]
      },
      "properties": {
        "Name": "Halabja Amusement Park Fitness Center",
        "Dataset": "HERA",
        "name": "Halabja Amusement Park Fitness Center",
        "dataset": "HERA",
        "latitude": 35.17055235,
        "longitude": 46.00018836
      }
    },
    {
      "type": "Feature",
      "geometry": {
        "type": "Point",
        "coordinates": [
          45.9878465,
          35.1783367
        ]
      },
      "properties": {
        "Name": "Bamok Self Defence Learning Centre",
        "Dataset": "HERA",
        "name": "Bamok Self Defence Learning Centre",
        "dataset": "HERA",
        "latitude": 35.1783367,
        "longitude": 45.9878465
      }
    },
    {
      "type": "Feature",
      "geometry": {
        "type": "Point",
        "coordinates": [
          45.9875133,
          35.1785581
        ]
      },
      "properties": {
        "Name": "Salman Fitness Center",
        "Dataset": "HERA",
        "name": "Salman Fitness Center",
        "dataset": "HERA",
        "latitude": 35.1785581,
        "longitude": 45.9875133
      }
    },
    {
      "type": "Feature",
      "geometry": {
        "type": "Point",
        "coordinates": [
          46.0358739,
          35.2996686
        ]
      },
      "properties": {
        "Name": "Khurmal Fitness Center",
        "Dataset": "HERA",
        "name": "Khurmal Fitness Center",
        "dataset": "HERA",
        "latitude": 35.2996686,
        "longitude": 46.0358739
      }
    },
    {
      "type": "Feature",
      "geometry": {
        "type": "Point",
        "coordinates": [
          45.97446492,
          35.18714086
        ]
      },
      "properties": {
        "Name": "Halabja Monument",
        "Dataset": "HERA",
        "name": "Halabja Monument",
        "dataset": "HERA",
        "latitude": 35.18714086,
        "longitude": 45.97446492
      }
    },
    {
      "type": "Feature",
      "geometry": {
        "type": "Point",
        "coordinates": [
          45.98469911,
          35.18135158
        ]
      },
      "properties": {
        "Name": "Rashmalani Halabja Cultural House Museum",
        "Dataset": "HERA",
        "name": "Rashmalani Halabja Cultural House Museum",
        "dataset": "HERA",
        "latitude": 35.18135158,
        "longitude": 45.98469911
      }
    },
    {
      "type": "Feature",
      "geometry": {
        "type": "Point",
        "coordinates": [
          45.98811828,
          35.178483
        ]
      },
      "properties": {
        "Name": "The Historical Infrastructure of Halabja",
        "Dataset": "HERA",
        "name": "The Historical Infrastructure of Halabja",
        "dataset": "HERA",
        "latitude": 35.178483,
        "longitude": 45.98811828
      }
    },
    {
      "type": "Feature",
      "geometry": {
        "type": "Point",
        "coordinates": [
          45.9703969,
          35.1942272
        ]
      },
      "properties": {
        "Name": "Liam Hall",
        "Dataset": "HERA",
        "name": "Liam Hall",
        "dataset": "HERA",
        "latitude": 35.1942272,
        "longitude": 45.9703969
      }
    },
    {
      "type": "Feature",
      "geometry": {
        "type": "Point",
        "coordinates": [
          45.9708257,
          35.1930225
        ]
      },
      "properties": {
        "Name": "Meer Hall",
        "Dataset": "HERA",
        "name": "Meer Hall",
        "dataset": "HERA",
        "latitude": 35.1930225,
        "longitude": 45.9708257
      }
    },
    {
      "type": "Feature",
      "geometry": {
        "type": "Point",
        "coordinates": [
          45.9982615,
          35.1803531
        ]
      },
      "properties": {
        "Name": "Mustafa Zalmi Hall",
        "Dataset": "HERA",
        "name": "Mustafa Zalmi Hall",
        "dataset": "HERA",
        "latitude": 35.1803531,
        "longitude": 45.9982615
      }
    },
    {
      "type": "Feature",
      "geometry": {
        "type": "Point",
        "coordinates": [
          46.00889247,
          35.2183796
        ]
      },
      "properties": {
        "Name": "Khatoo Hanar Garden",
        "Dataset": "HERA",
        "name": "Khatoo Hanar Garden",
        "dataset": "HERA",
        "latitude": 35.2183796,
        "longitude": 46.00889247
      }
    },
    {
      "type": "Feature",
      "geometry": {
        "type": "Point",
        "coordinates": [
          45.99260373,
          35.18820283
        ]
      },
      "properties": {
        "Name": "Khnjilana Amusement Park",
        "Dataset": "HERA",
        "name": "Khnjilana Amusement Park",
        "dataset": "HERA",
        "latitude": 35.18820283,
        "longitude": 45.99260373
      }
    },
    {
      "type": "Feature",
      "geometry": {
        "type": "Point",
        "coordinates": [
          45.9884766,
          35.1792229
        ]
      },
      "properties": {
        "Name": "Halabja Center",
        "Dataset": "HERA",
        "name": "Halabja Center",
        "dataset": "HERA",
        "latitude": 35.1792229,
        "longitude": 45.9884766
      }
    },
    {
      "type": "Feature",
      "geometry": {
        "type": "Point",
        "coordinates": [
          45.9878914,
          35.1783702
        ]
      },
      "properties": {
        "Name": "Playzone Center",
        "Dataset": "HERA",
        "name": "Playzone Center",
        "dataset": "HERA",
        "latitude": 35.1783702,
        "longitude": 45.9878914
      }
    },
    {
      "type": "Feature",
      "geometry": {
        "type": "Point",
        "coordinates": [
          45.9886005,
          35.178559
        ]
      },
      "properties": {
        "Name": "Millat Tea House",
        "Dataset": "HERA",
        "name": "Millat Tea House",
        "dataset": "HERA",
        "latitude": 35.178559,
        "longitude": 45.9886005
      }
    },
    {
      "type": "Feature",
      "geometry": {
        "type": "Point",
        "coordinates": [
          45.98853045,
          35.17895955
        ]
      },
      "properties": {
        "Name": "Game Center",
        "Dataset": "HERA",
        "name": "Game Center",
        "dataset": "HERA",
        "latitude": 35.17895955,
        "longitude": 45.98853045
      }
    },
    {
      "type": "Feature",
      "geometry": {
        "type": "Point",
        "coordinates": [
          46.01917194,
          35.19886897
        ]
      },
      "properties": {
        "Name": "Four Mass Graves of Halabja Chemical Attack Martyrs",
        "Dataset": "HERA",
        "name": "Four Mass Graves of Halabja Chemical Attack Martyrs",
        "dataset": "HERA",
        "latitude": 35.19886897,
        "longitude": 46.01917194
      }
    },
    {
      "type": "Feature",
      "geometry": {
        "type": "Point",
        "coordinates": [
          45.99908254,
          35.18574018
        ]
      },
      "properties": {
        "Name": "Kakaiyakan Events Hall",
        "Dataset": "HERA",
        "name": "Kakaiyakan Events Hall",
        "dataset": "HERA",
        "latitude": 35.18574018,
        "longitude": 45.99908254
      }
    },
    {
      "type": "Feature",
      "geometry": {
        "type": "Point",
        "coordinates": [
          46.1230965,
          35.23155519
        ]
      },